<?xml version="1.0" encoding="UTF-8"?>
<kml xmlns="http://www.opengis.net/kml/2.2">
  <Document>
    <name>マニラ首都圏地下鉄計画（MMS）※計画</name>
    <Style id="icon-1716-DB4436-nodesc-normal">
      <IconStyle>
        <color>ff3644db</color>
        <scale>1</scale>
        <Icon>
          <href>https://www.gstatic.com/mapspro/images/stock/503-wht-blank_maps.png</href>
        </Icon>
      </IconStyle>
      <LabelStyle>
        <scale>0</scale>
      </LabelStyle>
      <BalloonStyle>
        <text><![CDATA[<h3>$[name]</h3>]]></text>
      </BalloonStyle>
    </Style>
    <Style id="icon-1716-DB4436-nodesc-highlight">
      <IconStyle>
        <color>ff3644db</color>
        <scale>1</scale>
        <Icon>
          <href>https://www.gstatic.com/mapspro/images/stock/503-wht-blank_maps.png</href>
        </Icon>
      </IconStyle>
      <LabelStyle>
        <scale>1</scale>
      </LabelStyle>
      <BalloonStyle>
        <text><![CDATA[<h3>$[name]</h3>]]></text>
      </BalloonStyle>
    </Style>
    <StyleMap id="icon-1716-DB4436-nodesc">
      <Pair>
        <key>normal</key>
        <styleUrl>#icon-1716-DB4436-nodesc-normal</styleUrl>
      </Pair>
      <Pair>
        <key>highlight</key>
        <styleUrl>#icon-1716-DB4436-nodesc-highlight</styleUrl>
      </Pair>
    </StyleMap>
    <Style id="line-F48FB1-6000-nodesc-normal">
      <LineStyle>
        <color>ffb18ff4</color>
        <width>6</width>
      </LineStyle>
      <BalloonStyle>
        <text><![CDATA[<h3>$[name]</h3>]]></text>
      </BalloonStyle>
    </Style>
    <Style id="line-F48FB1-6000-nodesc-highlight">
      <LineStyle>
        <color>ffb18ff4</color>
        <width>9</width>
      </LineStyle>
      <BalloonStyle>
        <text><![CDATA[<h3>$[name]</h3>]]></text>
      </BalloonStyle>
    </Style>
    <StyleMap id="line-F48FB1-6000-nodesc">
      <Pair>
        <key>normal</key>
        <styleUrl>#line-F48FB1-6000-nodesc-normal</styleUrl>
      </Pair>
      <Pair>
        <key>highlight</key>
        <styleUrl>#line-F48FB1-6000-nodesc-highlight</styleUrl>
      </Pair>
    </StyleMap>
    <Placemark>
      <name>マニラ首都圏地下鉄計画（MMS）</name>
      <styleUrl>#line-F48FB1-6000-nodesc</styleUrl>
      <LineString>
        <tessellate>1</tessellate>
        <coordinates>
          121.036272,14.504715,0
          121.032749,14.511322,0
          121.036544,14.515727,0
          121.045269,14.516155,0
          121.051254,14.518385,0
          121.05659,14.528259,0
          121.057696,14.532094,0
          121.057419,14.538655,0
          121.053452,14.544706,0
          121.055308,14.550726,0
          121.054766,14.557377,0
          121.055993,14.561422,0
          121.058562,14.571789,0
          121.061611,14.575209,0
          121.063631,14.578002,0
          121.063939,14.587765,0
          121.069749,14.597953,0
          121.069113,14.601035,0
          121.070443,14.605353,0
          121.070511,14.614552,0
          121.065431,14.627769,0
          121.058781,14.634935,0
          121.048398,14.637516,0
          121.043923,14.639639,0
          121.041842,14.642839,0
          121.037397,14.644368,0
          121.03358,14.650038,0
          121.035138,14.65437,0
          121.036395,14.660079,0
          121.03636,14.664369,0
          121.034312,14.667921,0
          121.032544,14.670689,0
          121.032055,14.676401,0
          121.03144,14.687366,0
          121.028172,14.690174,0
          121.025456,14.692084,0
          121.022982,14.692468,0
          121.020299,14.695353,0
        </coordinates>
      </LineString>
    </Placemark>
    <Placemark>
      <name>Quirino Highway</name>
      <styleUrl>#icon-1716-DB4436-nodesc</styleUrl>
      <Point>
        <coordinates>
          121.028503,14.689824,0
        </coordinates>
      </Point>
    </Placemark>
    <Placemark>
      <name>Tandang Sora</name>
      <styleUrl>#icon-1716-DB4436-nodesc</styleUrl>
      <Point>
        <coordinates>
          121.032047,14.67627,0
        </coordinates>
      </Point>
    </Placemark>
    <Placemark>
      <name>North Avenue</name>
      <styleUrl>#icon-1716-DB4436-nodesc</styleUrl>
      <Point>
        <coordinates>
          121.034884,14.653597,0
        </coordinates>
      </Point>
    </Placemark>
    <Placemark>
      <name>Quezon Ave</name>
      <styleUrl>#icon-1716-DB4436-nodesc</styleUrl>
      <Point>
        <coordinates>
          121.036808,14.645318,0
        </coordinates>
      </Point>
    </Placemark>
    <Placemark>
      <name>East Avenue</name>
      <styleUrl>#icon-1716-DB4436-nodesc</styleUrl>
      <Point>
        <coordinates>
          121.048096,14.637481,0
        </coordinates>
      </Point>
    </Placemark>
    <Placemark>
      <name>Anonas</name>
      <styleUrl>#icon-1716-DB4436-nodesc</styleUrl>
      <Point>
        <coordinates>
          121.065571,14.627318,0
        </coordinates>
      </Point>
    </Placemark>
    <Placemark>
      <name>Katipunan</name>
      <styleUrl>#icon-1716-DB4436-nodesc</styleUrl>
      <Point>
        <coordinates>
          121.070846,14.615141,0
        </coordinates>
      </Point>
    </Placemark>
    <Placemark>
      <name>Ortigas North</name>
      <styleUrl>#icon-1716-DB4436-nodesc</styleUrl>
      <Point>
        <coordinates>
          121.063881,14.58724,0
        </coordinates>
      </Point>
    </Placemark>
    <Placemark>
      <name>Ortigas South</name>
      <styleUrl>#icon-1716-DB4436-nodesc</styleUrl>
      <Point>
        <coordinates>
          121.061459,14.575433,0
        </coordinates>
      </Point>
    </Placemark>
    <Placemark>
      <name>Kalayaan Ave</name>
      <styleUrl>#icon-1716-DB4436-nodesc</styleUrl>
      <Point>
        <coordinates>
          121.055478,14.559849,0
        </coordinates>
      </Point>
    </Placemark>
    <Placemark>
      <name>BGC</name>
      <styleUrl>#icon-1716-DB4436-nodesc</styleUrl>
      <Point>
        <coordinates>
          121.0548,14.549397,0
        </coordinates>
      </Point>
    </Placemark>
    <Placemark>
      <name>Cayetano Blvd</name>
      <styleUrl>#icon-1716-DB4436-nodesc</styleUrl>
      <Point>
        <coordinates>
          121.056546,14.52824,0
        </coordinates>
      </Point>
    </Placemark>
    <Placemark>
      <name>FTI</name>
      <styleUrl>#icon-1716-DB4436-nodesc</styleUrl>
      <Point>
        <coordinates>
          121.036495,14.505145,0
        </coordinates>
      </Point>
    </Placemark>
  </Document>
</kml>
